[
    {
        "code": "AAA",
        "icao": "NTGA",
        "name": "Anaa",
        "latitude": "-17.3506654",
        "longitude": "-145.5111199",
        "elevation": "36",
        "time_zone": "Pacific/Tahiti",
        "city_code": "AAA",
        "country": "PF",
        "city": ""
    },
    {
        "code": "AAB",
        "icao": "YARY",
        "name": "Arrabury Airport",
        "latitude": "-26.6967835",
        "longitude": "141.049092",
        "elevation": "328",
        "time_zone": "Australia/Brisbane",
        "city_code": "AAB",
        "country": "AU",
        "city": "Tanbar"
    },
    {
        "code": "AAC",
        "icao": "HEAR",
        "name": "El Arish International Airport",
        "latitude": "31.0742836",
        "longitude": "33.829171518733695",
        "elevation": "85",
        "time_zone": "Africa/Cairo",
        "city_code": "AAC",
        "country": "EG",
        "city": "Arish"
    },
    {
        "code": "AAD",
        "icao": "HCAD",
        "name": "Adado Airport",
        "latitude": "6.09628635",
        "longitude": "46.637708371259194",
        "elevation": "980",
        "time_zone": "Africa/Khartoum",
        "city_code": "AAD",
        "country": "SO",
        "city": "Adado"
    },
    {
        "code": "AAE",
        "icao": "DABB",
        "name": "Les Salines Airport",
        "latitude": "36.821392",
        "longitude": "7.811857",
        "elevation": "36",
        "time_zone": "Africa/Algiers",
        "city_code": "AAE",
        "country": "DZ",
        "city": "El Hadjar"
    },
    {
        "code": "AAF",
        "icao": "KAAF",
        "name": "Apalachicola Regional",
        "latitude": "29.7302356",
        "longitude": "-85.02964472",
        "elevation": "19",
        "time_zone": "America/New_York",
        "city_code": "AAF",
        "country": "US",
        "city": "Apalachicola"
    },
    {
        "code": "AAG",
        "icao": "SSYA",
        "name": "Arapoti",
        "latitude": "-24.1037812",
        "longitude": "-49.78949435",
        "elevation": "2608",
        "time_zone": "America/Sao_Paulo",
        "city_code": "AAG",
        "country": "BR",
        "city": "Jaguariaiva"
    },
    {
        "code": "AAH",
        "icao": "EDKA",
        "name": "Aachen/Merzbruck",
        "latitude": "50.75",
        "longitude": "6.133333",
        "elevation": "754",
        "time_zone": "Europe/Berlin",
        "city_code": "AAH",
        "country": "DE",
        "city": ""
    },
    {
        "code": "AAI",
        "icao": "SWRA",
        "name": "Arraias",
        "latitude": "-12.916667",
        "longitude": "-46.933334",
        "elevation": "2490",
        "time_zone": "America/Araguaina",
        "city_code": "AAI",
        "country": "BR",
        "city": "Campos Belos"
    },
    {
        "code": "AAJ",
        "icao": "SMCA",
        "name": "Cayana Airstrip",
        "latitude": "3.8987445",
        "longitude": "-55.5779688",
        "elevation": "278",
        "time_zone": "America/Paramaribo",
        "city_code": "AAJ",
        "country": "SR",
        "city": "Kajana"
    },
    {
        "code": "AAK",
        "icao": "NGUK",
        "name": "Aranuka",
        "latitude": "0.166667",
        "longitude": "173.58333",
        "elevation": "0",
        "time_zone": "Pacific/Tarawa",
        "city_code": "AAK",
        "country": "KI",
        "city": ""
    },
    {
        "code": "AAL",
        "icao": "EKYT",
        "name": "Aalborg Airport",
        "latitude": "57.0864352",
        "longitude": "9.868075521300991",
        "elevation": "19",
        "time_zone": "Europe/Copenhagen",
        "city_code": "AAL",
        "country": "DK",
        "city": "Vadum"
    },
    {
        "code": "AAM",
        "icao": "FAMD",
        "name": "Mala Mala",
        "latitude": "-24.8",
        "longitude": "31.533333",
        "elevation": "1082",
        "time_zone": "Africa/Johannesburg",
        "city_code": "AAM",
        "country": "ZA",
        "city": ""
    },
    {
        "code": "AAN",
        "icao": "OMAL",
        "name": "Al Ain Airport",
        "latitude": "24.260231",
        "longitude": "55.616627",
        "elevation": "830",
        "time_zone": "Asia/Dubai",
        "city_code": "AAN",
        "country": "AE",
        "city": ""
    },
    {
        "code": "AAO",
        "icao": "SVAN",
        "name": "Anaco",
        "latitude": "9.4298739",
        "longitude": "-64.47086335",
        "elevation": "692",
        "time_zone": "America/Caracas",
        "city_code": "AAO",
        "country": "VE",
        "city": "Anaco"
    },
    {
        "code": "AAP",
        "icao": "WALS",
        "name": "Andrau Airpark",
        "latitude": "29.833332",
        "longitude": "-95.666664",
        "elevation": "154",
        "time_zone": "America/Chicago",
        "city_code": "HOU",
        "country": "US",
        "city": ""
    },
    {
        "code": "AAQ",
        "icao": "URKA",
        "name": "Anapa Airport",
        "latitude": "45.00265265",
        "longitude": "37.34498313723325",
        "elevation": "137",
        "time_zone": "Europe/Moscow",
        "city_code": "AAQ",
        "country": "RU",
        "city": "Anapa"
    },
    {
        "code": "AAR",
        "icao": "EKAH",
        "name": "Aarhus Airport",
        "latitude": "56.304542549999994",
        "longitude": "10.612849817576597",
        "elevation": "45",
        "time_zone": "Europe/Copenhagen",
        "city_code": "AAR",
        "country": "DK",
        "city": "Ebeltoft"
    },
    {
        "code": "AAS",
        "icao": "",
        "name": "Apalapsili",
        "latitude": "-3.880849",
        "longitude": "139.3107060627146",
        "elevation": "3005",
        "time_zone": "Asia/Jayapura",
        "city_code": "AAS",
        "country": "ID",
        "city": ""
    },
    {
        "code": "AAT",
        "icao": "ZWAT",
        "name": "Altay Airport",
        "latitude": "47.74833705",
        "longitude": "88.08948249042332",
        "elevation": "2408",
        "time_zone": "Asia/Urumqi",
        "city_code": "AAT",
        "country": "CN",
        "city": "Awiytan"
    },
    {
        "code": "AAU",
        "icao": "NSAU",
        "name": "Asau",
        "latitude": "-13.458333",
        "longitude": "-172.6",
        "elevation": "0",
        "time_zone": "Pacific/Apia",
        "city_code": "AAU",
        "country": "WS",
        "city": "Asau"
    },
    {
        "code": "AAV",
        "icao": "RPMA",
        "name": "Allah Valley",
        "latitude": "6.36768745",
        "longitude": "124.75266160348093",
        "elevation": "629",
        "time_zone": "Asia/Manila",
        "city_code": "AAV",
        "country": "PH",
        "city": "Surallah"
    },
    {
        "code": "AAW",
        "icao": "OPAB",
        "name": "Abbottabad",
        "latitude": "34.2",
        "longitude": "73.25",
        "elevation": "4061",
        "time_zone": "Asia/Karachi",
        "city_code": "AAW",
        "country": "PK",
        "city": "Abbottabad"
    },
    {
        "code": "AAX",
        "icao": "SBAX",
        "name": "Araxa Airport",
        "latitude": "-19.563132",
        "longitude": "-46.96040575",
        "elevation": "3267",
        "time_zone": "America/Sao_Paulo",
        "city_code": "AAX",
        "country": "BR",
        "city": "Araxa"
    },
    {
        "code": "AAY",
        "icao": "OYGD",
        "name": "Al Ghaydah",
        "latitude": "16.1879658",
        "longitude": "52.17271501755243",
        "elevation": "114",
        "time_zone": "Asia/Aden",
        "city_code": "AAY",
        "country": "YE",
        "city": "Al Ghayzah"
    },
    {
        "code": "AAZ",
        "icao": "MGQZ",
        "name": "Quetzaltenango",
        "latitude": "14.8611558",
        "longitude": "-91.50677134",
        "elevation": "7795",
        "time_zone": "America/Guatemala",
        "city_code": "AAZ",
        "country": "GT",
        "city": "Olintepeque"
    },
    {
        "code": "ABA",
        "icao": "UNAA",
        "name": "Abakan Airport",
        "latitude": "53.716667",
        "longitude": "91.5",
        "elevation": "807",
        "time_zone": "Asia/Krasnoyarsk",
        "city_code": "ABA",
        "country": "RU",
        "city": "Podsineye"
    },
    {
        "code": "ABB",
        "icao": "DNAS",
        "name": "Asaba International Airport",
        "latitude": "6.20565465",
        "longitude": "6.663854565066257",
        "elevation": "216",
        "time_zone": "Africa/Lagos",
        "city_code": "ABB",
        "country": "NG",
        "city": "Asaba"
    },
    {
        "code": "ABC",
        "icao": "LEAB",
        "name": "Los Llanos",
        "latitude": "38.948334",
        "longitude": "-1.863333",
        "elevation": "2276",
        "time_zone": "Europe/Madrid",
        "city_code": "ABC",
        "country": "ES",
        "city": ""
    },
    {
        "code": "ABD",
        "icao": "OIAA",
        "name": "Abadan Airport",
        "latitude": "30.3668469",
        "longitude": "48.228439506236356",
        "elevation": "26",
        "time_zone": "Asia/Tehran",
        "city_code": "ABD",
        "country": "IR",
        "city": "Abadan"
    },
    {
        "code": "ABE",
        "icao": "KABE",
        "name": "Lehigh Valley International Airport",
        "latitude": "40.651163100000005",
        "longitude": "-75.44225387",
        "elevation": "374",
        "time_zone": "America/New_York",
        "city_code": "ABE",
        "country": "US",
        "city": "Catasauqua"
    },
    {
        "code": "ABF",
        "icao": "NGAB",
        "name": "Abaiang",
        "latitude": "1.670833",
        "longitude": "173.30417",
        "elevation": "0",
        "time_zone": "Pacific/Tarawa",
        "city_code": "ABF",
        "country": "KI",
        "city": "Buota Village"
    },
    {
        "code": "ABG",
        "icao": "YABI",
        "name": "Abingdon",
        "latitude": "-17.666668",
        "longitude": "143.2",
        "elevation": "600",
        "time_zone": "Australia/Brisbane",
        "city_code": "ABG",
        "country": "AU",
        "city": ""
    },
    {
        "code": "ABH",
        "icao": "YAPH",
        "name": "Alpha",
        "latitude": "-23.65",
        "longitude": "146.63333",
        "elevation": "1190",
        "time_zone": "Australia/Brisbane",
        "city_code": "ABH",
        "country": "AU",
        "city": ""
    },
    {
        "code": "ABI",
        "icao": "KABI",
        "name": "Abilene Regional Airport",
        "latitude": "32.407743749999995",
        "longitude": "-99.67936993",
        "elevation": "1791",
        "time_zone": "America/Chicago",
        "city_code": "ABI",
        "country": "US",
        "city": ""
    },
    {
        "code": "ABJ",
        "icao": "DIAP",
        "name": "Felix Houphouet Boigny Airport",
        "latitude": "5.264928299999999",
        "longitude": "-3.925957339",
        "elevation": "42",
        "time_zone": "Africa/Abidjan",
        "city_code": "ABJ",
        "country": "CI",
        "city": "Abidjan"
    },
    {
        "code": "ABK",
        "icao": "HAKD",
        "name": "Kabri Dar",
        "latitude": "6.733889",
        "longitude": "44.26611",
        "elevation": "1738",
        "time_zone": "Africa/Addis_Ababa",
        "city_code": "ABK",
        "country": "ET",
        "city": ""
    },
    {
        "code": "ABL",
        "icao": "PAFM",
        "name": "Ambler Airport",
        "latitude": "67.1058333",
        "longitude": "-157.8536111",
        "elevation": "190",
        "time_zone": "America/Anchorage",
        "city_code": "ABL",
        "country": "US",
        "city": ""
    },
    {
        "code": "ABM",
        "icao": "YNPE",
        "name": "Northern Peninsula Airport",
        "latitude": "-10.942619",
        "longitude": "142.45033",
        "elevation": "98",
        "time_zone": "Australia/Brisbane",
        "city_code": "ABM",
        "country": "AU",
        "city": ""
    },
    {
        "code": "ABN",
        "icao": "SMBN",
        "name": "Albina",
        "latitude": "5.5",
        "longitude": "-54.083332",
        "elevation": "108",
        "time_zone": "America/Paramaribo",
        "city_code": "ABN",
        "country": "SR",
        "city": ""
    },
    {
        "code": "ABO",
        "icao": "DIAO",
        "name": "Aboisso",
        "latitude": "5.433333",
        "longitude": "-3.216667",
        "elevation": "95",
        "time_zone": "Africa/Abidjan",
        "city_code": "ABO",
        "country": "CI",
        "city": "Aboisso"
    },
    {
        "code": "ABP",
        "icao": "",
        "name": "Atkamba",
        "latitude": "-6.06470215",
        "longitude": "141.09521515526734",
        "elevation": "36",
        "time_zone": "Pacific/Port_Moresby",
        "city_code": "ABP",
        "country": "PG",
        "city": ""
    },
    {
        "code": "ABQ",
        "icao": "KABQ",
        "name": "Albuquerque International Sunport",
        "latitude": "35.037669449999996",
        "longitude": "-106.6109675",
        "elevation": "5308",
        "time_zone": "America/Denver",
        "city_code": "ABQ",
        "country": "US",
        "city": "Albuquerque"
    },
    {
        "code": "ABR",
        "icao": "KABR",
        "name": "Aberdeen Municipal Airport",
        "latitude": "45.4525",
        "longitude": "-98.42611",
        "elevation": "1289",
        "time_zone": "America/Chicago",
        "city_code": "ABR",
        "country": "US",
        "city": "Aberdeen"
    },
    {
        "code": "ABS",
        "icao": "HEBL",
        "name": "Abu Simbel",
        "latitude": "22.372228200000002",
        "longitude": "31.61302768093995",
        "elevation": "511",
        "time_zone": "Africa/Cairo",
        "city_code": "ABS",
        "country": "EG",
        "city": ""
    },
    {
        "code": "ABT",
        "icao": "OEBA",
        "name": "Al-Aqiq Airport",
        "latitude": "20.296139",
        "longitude": "41.634277",
        "elevation": "5446",
        "time_zone": "Asia/Riyadh",
        "city_code": "ABT",
        "country": "SA",
        "city": "Al Bahah"
    },
    {
        "code": "ABU",
        "icao": "WATA",
        "name": "Haliwen Airport",
        "latitude": "-9.133333",
        "longitude": "124.88333",
        "elevation": "1250",
        "time_zone": "Asia/Makassar",
        "city_code": "ABU",
        "country": "ID",
        "city": "Atambua"
    },
    {
        "code": "ABV",
        "icao": "DNAA",
        "name": "Nnamdi Azikiwe International Airport",
        "latitude": "9.00668065",
        "longitude": "7.265007350650086",
        "elevation": "1092",
        "time_zone": "Africa/Lagos",
        "city_code": "ABV",
        "country": "NG",
        "city": "Madala"
    },
    {
        "code": "ABW",
        "icao": "",
        "name": "Abau",
        "latitude": "-10.183333",
        "longitude": "148.7",
        "elevation": "0",
        "time_zone": "Pacific/Port_Moresby",
        "city_code": "ABW",
        "country": "PG",
        "city": ""
    },
    {
        "code": "ABX",
        "icao": "YMAY",
        "name": "Albury Airport",
        "latitude": "-36.06894285",
        "longitude": "146.95187679604823",
        "elevation": "544",
        "time_zone": "Australia/Sydney",
        "city_code": "ABX",
        "country": "AU",
        "city": "East Albury"
    },
    {
        "code": "ABY",
        "icao": "KABY",
        "name": "Southwest Georgia Regional Airport",
        "latitude": "31.5339678",
        "longitude": "-84.19254493",
        "elevation": "213",
        "time_zone": "America/New_York",
        "city_code": "ABY",
        "country": "US",
        "city": ""
    },
    {
        "code": "ABZ",
        "icao": "EGPD",
        "name": "Aberdeen International Airport",
        "latitude": "57.20195485",
        "longitude": "-2.20199135",
        "elevation": "167",
        "time_zone": "Europe/London",
        "city_code": "ABZ",
        "country": "GB",
        "city": "Dyce"
    },
    {
        "code": "ACA",
        "icao": "MMAA",
        "name": "Acapulco International Airport",
        "latitude": "16.756593600000002",
        "longitude": "-99.75293698",
        "elevation": "22",
        "time_zone": "America/Mexico_City",
        "city_code": "ACA",
        "country": "MX",
        "city": "10 de Abril"
    },
    {
        "code": "ACB",
        "icao": "KACB",
        "name": "Antrim County",
        "latitude": "44.98832545",
        "longitude": "-85.1971963",
        "elevation": "659",
        "time_zone": "America/Detroit",
        "city_code": "ACB",
        "country": "US",
        "city": "Bellaire"
    },
    {
        "code": "ACC",
        "icao": "DGAA",
        "name": "Kotoka International Airport",
        "latitude": "5.60428935",
        "longitude": "-0.167967626",
        "elevation": "196",
        "time_zone": "Africa/Accra",
        "city_code": "ACC",
        "country": "GH",
        "city": "Accra"
    },
    {
        "code": "ACD",
        "icao": "SKAD",
        "name": "Acandi",
        "latitude": "8.516667",
        "longitude": "-77.3",
        "elevation": "72",
        "time_zone": "America/Bogota",
        "city_code": "ACD",
        "country": "CO",
        "city": ""
    },
    {
        "code": "ACE",
        "icao": "GCRR",
        "name": "Lanzarote Airport",
        "latitude": "28.94568045",
        "longitude": "-13.60758816",
        "elevation": "42",
        "time_zone": "Atlantic/Canary",
        "city_code": "ACE",
        "country": "ES",
        "city": "Tias"
    },
    {
        "code": "ACF",
        "icao": "ZWAL",
        "name": "Alaer Talimu Airport",
        "latitude": "40.464167",
        "longitude": "81.246944",
        "elevation": "3323",
        "time_zone": "Asia/Urumqi",
        "city_code": "ACF",
        "country": "CN",
        "city": "Aral"
    },
    {
        "code": "ACH",
        "icao": "LSZR",
        "name": "Altenrhein Airport",
        "latitude": "47.4859603",
        "longitude": "9.5598603",
        "elevation": "1272",
        "time_zone": "Europe/Zurich",
        "city_code": "ACH",
        "country": "CH",
        "city": "Rheineck"
    },
    {
        "code": "ACI",
        "icao": "EGJA",
        "name": "Alderney Airport",
        "latitude": "49.70694185",
        "longitude": "-2.214498597",
        "elevation": "298",
        "time_zone": "Europe/Guernsey",
        "city_code": "ACI",
        "country": "GB",
        "city": "Beaumont-Hague"
    },
    {
        "code": "ACJ",
        "icao": "VCCA",
        "name": "Anuradhapura",
        "latitude": "8.35",
        "longitude": "80.38333",
        "elevation": "265",
        "time_zone": "Asia/Colombo",
        "city_code": "ACJ",
        "country": "LK",
        "city": "Anuradhapura"
    },
    {
        "code": "ACK",
        "icao": "KACK",
        "name": "Nantucket Memorial Airport",
        "latitude": "41.256350600000005",
        "longitude": "-70.06422704",
        "elevation": "45",
        "time_zone": "America/New_York",
        "city_code": "ACK",
        "country": "US",
        "city": "Nantucket"
    },
    {
        "code": "ACL",
        "icao": "",
        "name": "Aguaclara",
        "latitude": "4.7470509",
        "longitude": "-72.9919234",
        "elevation": "1036",
        "time_zone": "America/Bogota",
        "city_code": "ACL",
        "country": "CO",
        "city": "Sabanalarga"
    },
    {
        "code": "ACM",
        "icao": "",
        "name": "Arica",
        "latitude": "-2",
        "longitude": "-71.833336",
        "elevation": "557",
        "time_zone": "America/Bogota",
        "city_code": "ACM",
        "country": "CO",
        "city": "Pebas"
    },
    {
        "code": "ACN",
        "icao": "MMCC",
        "name": "International",
        "latitude": "29.3",
        "longitude": "-100.916664",
        "elevation": "944",
        "time_zone": "America/Matamoros",
        "city_code": "ACN",
        "country": "MX",
        "city": ""
    },
    {
        "code": "ACO",
        "icao": "MRAF",
        "name": "Cobano Airport",
        "latitude": "9.693365",
        "longitude": "-85.091216",
        "elevation": "495",
        "time_zone": "America/Costa_Rica",
        "city_code": "ACO",
        "country": "CR",
        "city": "Cobano"
    },
    {
        "code": "ACP",
        "icao": "OITM",
        "name": "Sahand",
        "latitude": "37.347790399999994",
        "longitude": "46.12410489796737",
        "elevation": "4340",
        "time_zone": "Asia/Tehran",
        "city_code": "ACP",
        "country": "IR",
        "city": "Bonab"
    },
    {
        "code": "ACR",
        "icao": "SKAC",
        "name": "Araracuara",
        "latitude": "-0.383333",
        "longitude": "-72.3",
        "elevation": "482",
        "time_zone": "America/Bogota",
        "city_code": "ACR",
        "country": "CO",
        "city": ""
    },
    {
        "code": "ACS",
        "icao": "UNKS",
        "name": "Achinsk",
        "latitude": "56.270123999999996",
        "longitude": "90.57983018239561",
        "elevation": "974",
        "time_zone": "Asia/Krasnoyarsk",
        "city_code": "ACS",
        "country": "RU",
        "city": "Achinsk"
    },
    {
        "code": "ACT",
        "icao": "KACT",
        "name": "Waco Municipal Airport",
        "latitude": "31.609133",
        "longitude": "-97.22321",
        "elevation": "498",
        "time_zone": "America/Chicago",
        "city_code": "ACT",
        "country": "US",
        "city": "Gholson"
    },
    {
        "code": "ACU",
        "icao": "",
        "name": "Achutupo",
        "latitude": "9.576389",
        "longitude": "-79.72444",
        "elevation": "0",
        "time_zone": "America/Panama",
        "city_code": "ACU",
        "country": "PA",
        "city": "Portobelo"
    },
    {
        "code": "ACV",
        "icao": "KACV",
        "name": "Arcata-Eureka Airport",
        "latitude": "40.9763645",
        "longitude": "-124.1084259",
        "elevation": "147",
        "time_zone": "America/Los_Angeles",
        "city_code": "ACV",
        "country": "US",
        "city": "McKinleyville"
    },
    {
        "code": "ACX",
        "icao": "ZUYI",
        "name": "Xingyi Airport",
        "latitude": "25.083970700000002",
        "longitude": "104.95880288018984",
        "elevation": "4133",
        "time_zone": "Asia/Shanghai",
        "city_code": "ACX",
        "country": "CN",
        "city": "Xinzhou"
    },
    {
        "code": "ACY",
        "icao": "KACY",
        "name": "Atlantic City International Airport",
        "latitude": "39.45708535",
        "longitude": "-74.57027649",
        "elevation": "55",
        "time_zone": "America/New_York",
        "city_code": "AIY",
        "country": "US",
        "city": "Pomona"
    },
    {
        "code": "ACZ",
        "icao": "OIZB",
        "name": "Zabol Airport",
        "latitude": "31.097024750000003",
        "longitude": "61.54236908127046",
        "elevation": "1574",
        "time_zone": "Asia/Tehran",
        "city_code": "ACZ",
        "country": "IR",
        "city": "Zabol"
    },
    {
        "code": "ADA",
        "icao": "LTAF",
        "name": "Adana Airport",
        "latitude": "36.98503",
        "longitude": "35.29736",
        "elevation": "45",
        "time_zone": "Europe/Istanbul",
        "city_code": "ADA",
        "country": "TR",
        "city": "Seyhan"
    },
    {
        "code": "ADB",
        "icao": "LTBJ",
        "name": "Izmir Adnan Menderes Airport",
        "latitude": "38.289593249999996",
        "longitude": "27.15881973653169",
        "elevation": "337",
        "time_zone": "Europe/Istanbul",
        "city_code": "IZM",
        "country": "TR",
        "city": ""
    },
    {
        "code": "ADC",
        "icao": "AYAN",
        "name": "Andakombe",
        "latitude": "-7.1371023",
        "longitude": "145.74531004892887",
        "elevation": "3631",
        "time_zone": "Pacific/Port_Moresby",
        "city_code": "ADC",
        "country": "PG",
        "city": ""
    },
    {
        "code": "ADD",
        "icao": "HAAB",
        "name": "Addis Ababa Bole International Airport",
        "latitude": "8.97958075",
        "longitude": "38.79727968929066",
        "elevation": "7601",
        "time_zone": "Africa/Addis_Ababa",
        "city_code": "ADD",
        "country": "ET",
        "city": "Addis Ababa"
    },
    {
        "code": "ADE",
        "icao": "OYAA",
        "name": "International",
        "latitude": "12.826116",
        "longitude": "45.037537",
        "elevation": "32",
        "time_zone": "Asia/Aden",
        "city_code": "ADE",
        "country": "YE",
        "city": "Khawr Maksar"
    },
    {
        "code": "ADF",
        "icao": "LTCP",
        "name": "Adiyaman Airport",
        "latitude": "37.75",
        "longitude": "38.266666",
        "elevation": "2083",
        "time_zone": "Europe/Istanbul",
        "city_code": "ADF",
        "country": "TR",
        "city": "Adiyaman"
    },
    {
        "code": "ADG",
        "icao": "KADG",
        "name": "Lenawee County",
        "latitude": "41.9",
        "longitude": "-84.03333",
        "elevation": "800",
        "time_zone": "America/Detroit",
        "city_code": "ADG",
        "country": "US",
        "city": "Adrian"
    },
    {
        "code": "ADH",
        "icao": "UEEA",
        "name": "Aldan",
        "latitude": "58.6034931",
        "longitude": "125.40446306539265",
        "elevation": "2250",
        "time_zone": "Asia/Yakutsk",
        "city_code": "ADH",
        "country": "RU",
        "city": "Aldan"
    },
    {
        "code": "ADI",
        "icao": "FYAR",
        "name": "Arandis",
        "latitude": "-22.4",
        "longitude": "15",
        "elevation": "2043",
        "time_zone": "Africa/Windhoek",
        "city_code": "ADI",
        "country": "NA",
        "city": "Arandis"
    },
    {
        "code": "ADJ",
        "icao": "OJAM",
        "name": "Marka International Airport",
        "latitude": "31.97342425",
        "longitude": "35.994612548528934",
        "elevation": "2454",
        "time_zone": "Asia/Amman",
        "city_code": "AMM",
        "country": "JO",
        "city": "Amman"
    },
    {
        "code": "ADK",
        "icao": "PADK",
        "name": "Adak Island Ns",
        "latitude": "51.88278",
        "longitude": "-176.64473",
        "elevation": "29",
        "time_zone": "America/Adak",
        "city_code": "ADK",
        "country": "US",
        "city": ""
    },
    {
        "code": "ADL",
        "icao": "YPAD",
        "name": "Adelaide Airport",
        "latitude": "-34.94724045",
        "longitude": "138.5330688373241",
        "elevation": "26",
        "time_zone": "Australia/Adelaide",
        "city_code": "ADL",
        "country": "AU",
        "city": "Plympton"
    },
    {
        "code": "ADM",
        "icao": "KADM",
        "name": "Ardmore Municipal Airport",
        "latitude": "34.3028",
        "longitude": "-97.0192",
        "elevation": "711",
        "time_zone": "America/Chicago",
        "city_code": "ADM",
        "country": "US",
        "city": "Dickson"
    },
    {
        "code": "ADN",
        "icao": "SKAN",
        "name": "Andes",
        "latitude": "5.666667",
        "longitude": "-75.933334",
        "elevation": "6056",
        "time_zone": "America/Bogota",
        "city_code": "ADN",
        "country": "CO",
        "city": "Los Andes"
    },
    {
        "code": "ADO",
        "icao": "YAMK",
        "name": "Andamooka",
        "latitude": "-31.016666",
        "longitude": "137.15",
        "elevation": "442",
        "time_zone": "Australia/Adelaide",
        "city_code": "ADO",
        "country": "AU",
        "city": ""
    },
    {
        "code": "ADP",
        "icao": "VCCG",
        "name": "Ampara",
        "latitude": "7.338524700000001",
        "longitude": "81.62522424646704",
        "elevation": "144",
        "time_zone": "Asia/Colombo",
        "city_code": "ADP",
        "country": "LK",
        "city": ""
    },
    {
        "code": "ADQ",
        "icao": "PADQ",
        "name": "Kodiak Benny Benson State Airport",
        "latitude": "57.755276",
        "longitude": "-152.51297",
        "elevation": "45",
        "time_zone": "America/Anchorage",
        "city_code": "ADQ",
        "country": "US",
        "city": ""
    },
    {
        "code": "ADR",
        "icao": "KPHH",
        "name": "Andrews",
        "latitude": "33.45",
        "longitude": "-79.566666",
        "elevation": "42",
        "time_zone": "America/New_York",
        "city_code": "ADR",
        "country": "US",
        "city": "Andrews"
    },
    {
        "code": "ADS",
        "icao": "KADS",
        "name": "Addison Airport",
        "latitude": "32.783333",
        "longitude": "-97.3",
        "elevation": "521",
        "time_zone": "America/Chicago",
        "city_code": "DFW",
        "country": "US",
        "city": "Haltom City"
    },
    {
        "code": "ADT",
        "icao": "KADH",
        "name": "Ada Municipal",
        "latitude": "34.80490015",
        "longitude": "-96.667616",
        "elevation": "977",
        "time_zone": "America/Chicago",
        "city_code": "ADT",
        "country": "US",
        "city": "Ada"
    },
    {
        "code": "ADU",
        "icao": "OITL",
        "name": "Ardabil Airport",
        "latitude": "38.32367895",
        "longitude": "48.41727862641293",
        "elevation": "4324",
        "time_zone": "Asia/Tehran",
        "city_code": "ADU",
        "country": "IR",
        "city": "Namin"
    },
    {
        "code": "ADV",
        "icao": "",
        "name": "El Daein",
        "latitude": "11.4043102",
        "longitude": "26.1186495",
        "elevation": "1522",
        "time_zone": "Africa/Khartoum",
        "city_code": "ADV",
        "country": "SD",
        "city": "El Daein"
    },
    {
        "code": "ADW",
        "icao": "KADW",
        "name": "Andrews AFB",
        "latitude": "38.8057469",
        "longitude": "-76.87741646",
        "elevation": "255",
        "time_zone": "America/New_York",
        "city_code": "ADW",
        "country": "US",
        "city": "Andrews AFB"
    },
    {
        "code": "ADX",
        "icao": "EGQL",
        "name": "Leuchars",
        "latitude": "56.375599050000005",
        "longitude": "-2.859633955",
        "elevation": "19",
        "time_zone": "Europe/London",
        "city_code": "ADX",
        "country": "GB",
        "city": "Leuchars"
    },
    {
        "code": "ADY",
        "icao": "FAAL",
        "name": "Alldays",
        "latitude": "-22.67767555",
        "longitude": "29.053395555022227",
        "elevation": "2683",
        "time_zone": "Africa/Johannesburg",
        "city_code": "ADY",
        "country": "ZA",
        "city": ""
    },
    {
        "code": "ADZ",
        "icao": "SKSP",
        "name": "Gustavo Rojas Pinilla Airport",
        "latitude": "12.586047",
        "longitude": "-81.70221",
        "elevation": "39",
        "time_zone": "America/Bogota",
        "city_code": "ADZ",
        "country": "CO",
        "city": "San Andres"
    },
    {
        "code": "AEA",
        "icao": "NGTB",
        "name": "Abemama Atoll",
        "latitude": "0.490833",
        "longitude": "173.8289948",
        "elevation": "36",
        "time_zone": "Pacific/Tarawa",
        "city_code": "AEA",
        "country": "KI",
        "city": ""
    },
    {
        "code": "AEB",
        "icao": "ZGBS",
        "name": "Youjiang",
        "latitude": "23.72020895",
        "longitude": "106.9609714096124",
        "elevation": "452",
        "time_zone": "Asia/Shanghai",
        "city_code": "AEB",
        "country": "CN",
        "city": "Tianzhou"
    },
    {
        "code": "AED",
        "icao": "",
        "name": "Aleneva",
        "latitude": "58.033333",
        "longitude": "-152.9",
        "elevation": "1099",
        "time_zone": "America/Anchorage",
        "city_code": "AED",
        "country": "US",
        "city": ""
    },
    {
        "code": "AEE",
        "icao": "",
        "name": "Adareil Airport",
        "latitude": "10.052439199999998",
        "longitude": "32.962007213556745",
        "elevation": "1246",
        "time_zone": "Africa/Juba",
        "city_code": "AEE",
        "country": "SS",
        "city": ""
    },
    {
        "code": "AEG",
        "icao": "WIME",
        "name": "Aek Godang",
        "latitude": "1.3999603999999999",
        "longitude": "99.42983272544998",
        "elevation": "925",
        "time_zone": "Asia/Jakarta",
        "city_code": "AEG",
        "country": "ID",
        "city": "Padangsidempuan"
    },
    {
        "code": "AEH",
        "icao": "FTTC",
        "name": "Ab\u00e9ch\u00e9",
        "latitude": "13.8465726",
        "longitude": "20.849645040165157",
        "elevation": "1778",
        "time_zone": "Africa/Ndjamena",
        "city_code": "AEH",
        "country": "TD",
        "city": "Abeche"
    },
    {
        "code": "AEI",
        "icao": "",
        "name": "Algeciras",
        "latitude": "36.1289",
        "longitude": "-5.441301",
        "elevation": "42",
        "time_zone": "Europe/Madrid",
        "city_code": "AEI",
        "country": "ES",
        "city": "Algeciras"
    },
    {
        "code": "AEK",
        "icao": "AYAX",
        "name": "Aseki",
        "latitude": "-7.366667",
        "longitude": "146.28334",
        "elevation": "3694",
        "time_zone": "Pacific/Port_Moresby",
        "city_code": "AEK",
        "country": "PG",
        "city": ""
    },
    {
        "code": "AEL",
        "icao": "KAEL",
        "name": "Albert Lea",
        "latitude": "43.6800949",
        "longitude": "-93.36737639",
        "elevation": "1250",
        "time_zone": "America/Chicago",
        "city_code": "AEL",
        "country": "US",
        "city": "Albert Lea"
    },
    {
        "code": "AEM",
        "icao": "UHTG",
        "name": "Amgu",
        "latitude": "45.8414555",
        "longitude": "137.67364088576272",
        "elevation": "22",
        "time_zone": "Asia/Vladivostok",
        "city_code": "AEM",
        "country": "RU",
        "city": ""
    },
    {
        "code": "AEO",
        "icao": "GQNA",
        "name": "Aioun El Atrouss",
        "latitude": "16.71068715",
        "longitude": "-9.638219081",
        "elevation": "964",
        "time_zone": "Africa/Nouakchott",
        "city_code": "AEO",
        "country": "MR",
        "city": ""
    },
    {
        "code": "AEP",
        "icao": "SABE",
        "name": "Jorge Newbery Airport",
        "latitude": "-34.55622",
        "longitude": "-58.41667",
        "elevation": "42",
        "time_zone": "America/Argentina/Buenos_Aires",
        "city_code": "BUE",
        "country": "AR",
        "city": "Colegiales"
    },
    {
        "code": "AEQ",
        "icao": "",
        "name": "Ar Horqin Airport",
        "latitude": "43.90797955",
        "longitude": "120.14934798559226",
        "elevation": "1400",
        "time_zone": "Asia/Shanghai",
        "city_code": "AEQ",
        "country": "CN",
        "city": "Tianshan"
    },
    {
        "code": "AER",
        "icao": "URSS",
        "name": "Sochi International Airport",
        "latitude": "43.44397145",
        "longitude": "39.94009276010438",
        "elevation": "39",
        "time_zone": "Europe/Moscow",
        "city_code": "AER",
        "country": "RU",
        "city": "Orel-Izumrud"
    },
    {
        "code": "AES",
        "icao": "ENAL",
        "name": "Vigra Alesund Airport",
        "latitude": "62.56018535",
        "longitude": "6.113415709021158",
        "elevation": "49",
        "time_zone": "Europe/Oslo",
        "city_code": "AES",
        "country": "NO",
        "city": "Valderoy"
    },
    {
        "code": "AET",
        "icao": "PFAL",
        "name": "Allakaket",
        "latitude": "66.55193399999999",
        "longitude": "-152.6214482",
        "elevation": "439",
        "time_zone": "America/Anchorage",
        "city_code": "AET",
        "country": "US",
        "city": ""
    },
    {
        "code": "AEU",
        "icao": "OIBA",
        "name": "Abu Musa",
        "latitude": "25.875993649999998",
        "longitude": "55.034265964970395",
        "elevation": "16",
        "time_zone": "Asia/Tehran",
        "city_code": "AEU",
        "country": "IR",
        "city": ""
    },
    {
        "code": "AEX",
        "icao": "KAEX",
        "name": "Alexandria International Airport",
        "latitude": "31.329273649999998",
        "longitude": "-92.54095487",
        "elevation": "65",
        "time_zone": "America/Chicago",
        "city_code": "AEX",
        "country": "US",
        "city": "Alexandria"
    },
    {
        "code": "AEY",
        "icao": "BIAR",
        "name": "Akureyri Airport",
        "latitude": "65.65698725",
        "longitude": "-18.07060713",
        "elevation": "39",
        "time_zone": "Atlantic/Reykjavik",
        "city_code": "AEY",
        "country": "IS",
        "city": "Akureyri"
    },
    {
        "code": "AFA",
        "icao": "SAMR",
        "name": "San Rafael Airport",
        "latitude": "-34.58917",
        "longitude": "-68.40056",
        "elevation": "2454",
        "time_zone": "America/Argentina/Mendoza",
        "city_code": "AFA",
        "country": "AR",
        "city": "San Rafael"
    },
    {
        "code": "AFD",
        "icao": "FAPA",
        "name": "Port Alfred",
        "latitude": "-33.583332",
        "longitude": "26.883333",
        "elevation": "118",
        "time_zone": "Africa/Johannesburg",
        "city_code": "AFD",
        "country": "ZA",
        "city": ""
    },
    {
        "code": "AFF",
        "icao": "KAFF",
        "name": "USAF Academy Airstrip",
        "latitude": "38.833332",
        "longitude": "-104.7",
        "elevation": "6266",
        "time_zone": "America/Denver",
        "city_code": "COS",
        "country": "US",
        "city": "Cimarron Hills"
    },
    {
        "code": "AFI",
        "icao": "SKAM",
        "name": "Amalfi",
        "latitude": "6.8953157",
        "longitude": "-75.0467996",
        "elevation": "4855",
        "time_zone": "America/Bogota",
        "city_code": "AFI",
        "country": "CO",
        "city": "Amalfi"
    },
    {
        "code": "AFK",
        "icao": "",
        "name": "Ampara Kondavattavan Tank Airport",
        "latitude": "7.342169543255904",
        "longitude": "81.62931220557938",
        "elevation": "131",
        "time_zone": "Asia/Colombo",
        "city_code": "ADP",
        "country": "LK",
        "city": "Ampara"
    },
    {
        "code": "AFL",
        "icao": "SBAT",
        "name": "Alta Floresta Airport",
        "latitude": "-9.866163",
        "longitude": "-56.10603812",
        "elevation": "790",
        "time_zone": "America/Cuiaba",
        "city_code": "AFL",
        "country": "BR",
        "city": ""
    },
    {
        "code": "AFN",
        "icao": "KAFN",
        "name": "Municipal",
        "latitude": "42.833332",
        "longitude": "-72.066666",
        "elevation": "1122",
        "time_zone": "America/New_York",
        "city_code": "AFN",
        "country": "US",
        "city": "Jaffrey"
    },
    {
        "code": "AFO",
        "icao": "KAFO",
        "name": "Municipal",
        "latitude": "42.733334",
        "longitude": "-110.933334",
        "elevation": "6230",
        "time_zone": "America/Denver",
        "city_code": "AFO",
        "country": "US",
        "city": "Afton"
    },
    {
        "code": "AFR",
        "icao": "AYAF",
        "name": "Afore",
        "latitude": "-9.13834475",
        "longitude": "148.39097141857889",
        "elevation": "2385",
        "time_zone": "Pacific/Port_Moresby",
        "city_code": "AFR",
        "country": "PG",
        "city": ""
    },
    {
        "code": "AFS",
        "icao": "UTSN",
        "name": "Zarafshan",
        "latitude": "41.6155248",
        "longitude": "64.23177140418719",
        "elevation": "1338",
        "time_zone": "Asia/Samarkand",
        "city_code": "AFS",
        "country": "UZ",
        "city": "Tomdibuloq"
    },
    {
        "code": "AFT",
        "icao": "AGAF",
        "name": "Afutara Aerodrome",
        "latitude": "-9.2",
        "longitude": "160.85",
        "elevation": "0",
        "time_zone": "Pacific/Guadalcanal",
        "city_code": "AFT",
        "country": "SB",
        "city": ""
    },
    {
        "code": "AFW",
        "icao": "KAFW",
        "name": "Fort Worth Alliance Airport",
        "latitude": "32.992997849999995",
        "longitude": "-97.31836461",
        "elevation": "643",
        "time_zone": "America/Chicago",
        "city_code": "DFW",
        "country": "US",
        "city": "Haslet"
    },
    {
        "code": "AFY",
        "icao": "LTAH",
        "name": "Afyon",
        "latitude": "38.733334",
        "longitude": "30.6",
        "elevation": "3316",
        "time_zone": "Europe/Istanbul",
        "city_code": "AFY",
        "country": "TR",
        "city": "Afyonkarahisar"
    },
    {
        "code": "AFZ",
        "icao": "OIMS",
        "name": "Sabzevar",
        "latitude": "36.171675",
        "longitude": "57.59941595852304",
        "elevation": "3011",
        "time_zone": "Asia/Tehran",
        "city_code": "AFZ",
        "country": "IR",
        "city": "Sabzevar"
    },
    {
        "code": "AGA",
        "icao": "GMAD",
        "name": "Agadir Al Massira Airport",
        "latitude": "30.378326",
        "longitude": "-9.555895",
        "elevation": "62",
        "time_zone": "Africa/Casablanca",
        "city_code": "AGA",
        "country": "MA",
        "city": "Inezgane"
    },
    {
        "code": "AGB",
        "icao": "EDMA",
        "name": "Augsburg Airport",
        "latitude": "48.425278",
        "longitude": "10.931667",
        "elevation": "1492",
        "time_zone": "Europe/Berlin",
        "city_code": "MUC",
        "country": "DE",
        "city": "Rehling"
    },
    {
        "code": "AGC",
        "icao": "KAGC",
        "name": "Allegheny County Airport",
        "latitude": "40.3534454",
        "longitude": "-79.92904654",
        "elevation": "1250",
        "time_zone": "America/New_York",
        "city_code": "PIT",
        "country": "US",
        "city": "Pleasant Hills"
    },
    {
        "code": "AGD",
        "icao": "WASG",
        "name": "Anggi",
        "latitude": "-1.383333",
        "longitude": "133.86667",
        "elevation": "6627",
        "time_zone": "Asia/Jayapura",
        "city_code": "AGD",
        "country": "ID",
        "city": "Warmare"
    },
    {
        "code": "AGE",
        "icao": "EDWG",
        "name": "Flugplatz",
        "latitude": "53.783333",
        "longitude": "7.916667",
        "elevation": "22",
        "time_zone": "Europe/Berlin",
        "city_code": "AGE",
        "country": "DE",
        "city": "Wangerooge"
    },
    {
        "code": "AGF",
        "icao": "LFBA",
        "name": "La Garenne Airport",
        "latitude": "44.17361",
        "longitude": "0.598611",
        "elevation": "167",
        "time_zone": "Europe/Paris",
        "city_code": "AGF",
        "country": "FR",
        "city": "Le Passage"
    },
    {
        "code": "AGG",
        "icao": "",
        "name": "Angoram",
        "latitude": "-4.168611",
        "longitude": "144.07388",
        "elevation": "19",
        "time_zone": "Pacific/Port_Moresby",
        "city_code": "AGG",
        "country": "PG",
        "city": ""
    },
    {
        "code": "AGH",
        "icao": "ESTA",
        "name": "Angelholm Helsingborg Airport",
        "latitude": "56.297234599999996",
        "longitude": "12.852846835898422",
        "elevation": "36",
        "time_zone": "Europe/Stockholm",
        "city_code": "AGH",
        "country": "SE",
        "city": ""
    },
    {
        "code": "AGI",
        "icao": "SMWA",
        "name": "Wageningen",
        "latitude": "5.833333",
        "longitude": "-56.833332",
        "elevation": "19",
        "time_zone": "America/Paramaribo",
        "city_code": "AGI",
        "country": "SR",
        "city": "Wageningen"
    },
    {
        "code": "AGJ",
        "icao": "RORA",
        "name": "Aguni",
        "latitude": "26.59300295",
        "longitude": "127.23985985060742",
        "elevation": "32",
        "time_zone": "Asia/Tokyo",
        "city_code": "AGJ",
        "country": "JP",
        "city": ""
    },
    {
        "code": "AGK",
        "icao": "",
        "name": "Kagua",
        "latitude": "-6.403333",
        "longitude": "143.84666",
        "elevation": "5554",
        "time_zone": "Pacific/Port_Moresby",
        "city_code": "AGK",
        "country": "PG",
        "city": ""
    },
    {
        "code": "AGL",
        "icao": "AYWG",
        "name": "Wanigela",
        "latitude": "-9.33738355",
        "longitude": "149.15610272068812",
        "elevation": "29",
        "time_zone": "Pacific/Port_Moresby",
        "city_code": "AGL",
        "country": "PG",
        "city": ""
    },
    {
        "code": "AGM",
        "icao": "",
        "name": "Tasiilaq",
        "latitude": "65.6",
        "longitude": "-37.683334",
        "elevation": "534",
        "time_zone": "America/Godthab",
        "city_code": "AGM",
        "country": "GL",
        "city": ""
    },
    {
        "code": "AGN",
        "icao": "PAGN",
        "name": "Angoon",
        "latitude": "57.503887",
        "longitude": "-134.58333",
        "elevation": "0",
        "time_zone": "America/Juneau",
        "city_code": "AGN",
        "country": "US",
        "city": ""
    },
    {
        "code": "AGO",
        "icao": "KAGO",
        "name": "Municipal",
        "latitude": "33.266666",
        "longitude": "-93.23333",
        "elevation": "314",
        "time_zone": "America/Chicago",
        "city_code": "AGO",
        "country": "US",
        "city": "Magnolia"
    },
    {
        "code": "AGP",
        "icao": "LEMG",
        "name": "Malaga Airport",
        "latitude": "36.67876135",
        "longitude": "-4.499980126",
        "elevation": "52",
        "time_zone": "Europe/Madrid",
        "city_code": "AGP",
        "country": "ES",
        "city": ""
    },
    {
        "code": "AGQ",
        "icao": "LGAG",
        "name": "Agrinion",
        "latitude": "38.6137021",
        "longitude": "21.3929834",
        "elevation": "101",
        "time_zone": "Europe/Athens",
        "city_code": "AGQ",
        "country": "GR",
        "city": "Dhokimion"
    },
    {
        "code": "AGR",
        "icao": "VIAG",
        "name": "Kheria",
        "latitude": "27.158333",
        "longitude": "77.962776",
        "elevation": "574",
        "time_zone": "Asia/Kolkata",
        "city_code": "AGR",
        "country": "IN",
        "city": "Agra"
    },
    {
        "code": "AGS",
        "icao": "KAGS",
        "name": "Augusta Regional Airport",
        "latitude": "33.37230205",
        "longitude": "-81.96506391",
        "elevation": "101",
        "time_zone": "America/New_York",
        "city_code": "AGS",
        "country": "US",
        "city": ""
    },
    {
        "code": "AGT",
        "icao": "SGES",
        "name": "Alejo Garcia Airport",
        "latitude": "-25.5",
        "longitude": "-54.833332",
        "elevation": "810",
        "time_zone": "America/Asuncion",
        "city_code": "AGT",
        "country": "PY",
        "city": "Colonia Yguazu"
    },
    {
        "code": "AGU",
        "icao": "MMAS",
        "name": "Aguascalients International Airport",
        "latitude": "21.701416",
        "longitude": "-102.31374",
        "elevation": "6118",
        "time_zone": "America/Mexico_City",
        "city_code": "AGU",
        "country": "MX",
        "city": "Penuelas (El Cienegal)"
    },
    {
        "code": "AGV",
        "icao": "SVAC",
        "name": "Acarigua",
        "latitude": "9.552222",
        "longitude": "-69.23333",
        "elevation": "711",
        "time_zone": "America/Caracas",
        "city_code": "AGV",
        "country": "VE",
        "city": "Araure"
    },
    {
        "code": "AGW",
        "icao": "",
        "name": "Agnew",
        "latitude": "-12.1453511",
        "longitude": "142.1490609",
        "elevation": "200",
        "time_zone": "Australia/Brisbane",
        "city_code": "AGW",
        "country": "AU",
        "city": ""
    },
    {
        "code": "AGX",
        "icao": "VOAT",
        "name": "Agatti Island Airport",
        "latitude": "10.828967",
        "longitude": "72.17987",
        "elevation": "26",
        "time_zone": "Asia/Kolkata",
        "city_code": "AGX",
        "country": "IN",
        "city": "Kavaratti"
    },
    {
        "code": "AGZ",
        "icao": "FAAG",
        "name": "Aggeneys",
        "latitude": "-29.05",
        "longitude": "18.85",
        "elevation": "2818",
        "time_zone": "Africa/Johannesburg",
        "city_code": "AGZ",
        "country": "ZA",
        "city": "Pofadder"
    },
    {
        "code": "AHA",
        "icao": "",
        "name": "Naha AFB",
        "latitude": "26.2",
        "longitude": "127.65",
        "elevation": "32",
        "time_zone": "Asia/Tokyo",
        "city_code": "OKA",
        "country": "JP",
        "city": ""
    },
    {
        "code": "AHB",
        "icao": "OEAB",
        "name": "Abha Regional Airport",
        "latitude": "18.23429",
        "longitude": "42.657574",
        "elevation": "6876",
        "time_zone": "Asia/Riyadh",
        "city_code": "AHB",
        "country": "SA",
        "city": ""
    },
    {
        "code": "AHC",
        "icao": "KAHC",
        "name": "Amedee AAF",
        "latitude": "40.15",
        "longitude": "-120.13333",
        "elevation": "4055",
        "time_zone": "America/Los_Angeles",
        "city_code": "AHC",
        "country": "US",
        "city": "Janesville"
    },
    {
        "code": "AHD",
        "icao": "",
        "name": "Downtown",
        "latitude": "34.166668",
        "longitude": "-97.13333",
        "elevation": "902",
        "time_zone": "America/Chicago",
        "city_code": "ADM",
        "country": "US",
        "city": "Ardmore"
    },
    {
        "code": "AHE",
        "icao": "NTHE",
        "name": "Ahe Airport",
        "latitude": "-14.4280996",
        "longitude": "-146.2570038",
        "elevation": "32",
        "time_zone": "Pacific/Tahiti",
        "city_code": "AHE",
        "country": "PF",
        "city": ""
    },
    {
        "code": "AHF",
        "icao": "",
        "name": "Municipal",
        "latitude": "40.3",
        "longitude": "-99.9",
        "elevation": "2152",
        "time_zone": "America/Chicago",
        "city_code": "AHF",
        "country": "US",
        "city": "Arapahoe"
    },
    {
        "code": "AHG",
        "icao": "",
        "name": "Agalega Island Airstrip",
        "latitude": "-10.3717",
        "longitude": "56.60313",
        "elevation": "4",
        "time_zone": "Indian/Mauritius",
        "city_code": "AHG",
        "country": "MU",
        "city": ""
    },
    {
        "code": "AHH",
        "icao": "KAHH",
        "name": "Municipal",
        "latitude": "45.3",
        "longitude": "-92.35",
        "elevation": "1089",
        "time_zone": "America/Chicago",
        "city_code": "AHH",
        "country": "US",
        "city": "Amery"
    },
    {
        "code": "AHI",
        "icao": "WAPA",
        "name": "Amahai",
        "latitude": "-3.34785185",
        "longitude": "128.92746328743664",
        "elevation": "59",
        "time_zone": "Asia/Jayapura",
        "city_code": "AHI",
        "country": "ID",
        "city": "Amahai"
    },
    {
        "code": "AHJ",
        "icao": "ZUHY",
        "name": "Hongyuan Airport",
        "latitude": "32.536783299999996",
        "longitude": "102.35022953452355",
        "elevation": "11591",
        "time_zone": "Asia/Shanghai",
        "city_code": "AHJ",
        "country": "CN",
        "city": "Qiongxi"
    },
    {
        "code": "AHL",
        "icao": "SYAH",
        "name": "Aishalton",
        "latitude": "2.4755665000000002",
        "longitude": "-59.3194477",
        "elevation": "521",
        "time_zone": "America/Guyana",
        "city_code": "AHL",
        "country": "GY",
        "city": ""
    },
    {
        "code": "AHM",
        "icao": "KS03",
        "name": "Sumner Parker Field",
        "latitude": "42.19029999",
        "longitude": "-122.6610031",
        "elevation": "1827",
        "time_zone": "America/Los_Angeles",
        "city_code": "AHM",
        "country": "US",
        "city": "Ashland"
    },
    {
        "code": "AHN",
        "icao": "KAHN",
        "name": "Athens-Ben Epps",
        "latitude": "33.9487053",
        "longitude": "-83.32973998",
        "elevation": "767",
        "time_zone": "America/New_York",
        "city_code": "AHN",
        "country": "US",
        "city": "Winterville"
    },
    {
        "code": "AHO",
        "icao": "LIEA",
        "name": "Alghero-Fertilia Airport",
        "latitude": "40.63087935",
        "longitude": "8.288375274221512",
        "elevation": "62",
        "time_zone": "Europe/Rome",
        "city_code": "AHO",
        "country": "IT",
        "city": "Alghero"
    },
    {
        "code": "AHS",
        "icao": "MHAH",
        "name": "Ahuas",
        "latitude": "15.4819002",
        "longitude": "-84.4160995",
        "elevation": "32",
        "time_zone": "America/Tegucigalpa",
        "city_code": "AHS",
        "country": "HN",
        "city": "Wawina"
    },
    {
        "code": "AHU",
        "icao": "GMTA",
        "name": "Charif Al Idrissi Airport",
        "latitude": "35.17972",
        "longitude": "-3.836944",
        "elevation": "42",
        "time_zone": "Africa/Casablanca",
        "city_code": "AHU",
        "country": "MA",
        "city": "Imzourene"
    },
    {
        "code": "AHW",
        "icao": "",
        "name": "Saih Rawl",
        "latitude": "31.34292",
        "longitude": "48.74668",
        "elevation": "55",
        "time_zone": "Asia/Tehran",
        "city_code": "AHW",
        "country": "OM",
        "city": ""
    },
    {
        "code": "AHY",
        "icao": "",
        "name": "Ambatolahy",
        "latitude": "-20.0153265",
        "longitude": "45.5375864",
        "elevation": "314",
        "time_zone": "Indian/Antananarivo",
        "city_code": "AHY",
        "country": "MG",
        "city": ""
    },
    {
        "code": "AHZ",
        "icao": "LFHU",
        "name": "Alpe D Huez",
        "latitude": "45.0870881",
        "longitude": "6.082792927954502",
        "elevation": "6023",
        "time_zone": "Europe/Paris",
        "city_code": "AHZ",
        "country": "FR",
        "city": "Huez"
    },
    {
        "code": "AIA",
        "icao": "KAIA",
        "name": "Alliance Airport",
        "latitude": "42.051666",
        "longitude": "-102.80666",
        "elevation": "3904",
        "time_zone": "America/Denver",
        "city_code": "AIA",
        "country": "US",
        "city": "Alliance"
    },
    {
        "code": "AIC",
        "icao": "",
        "name": "Airok",
        "latitude": "7.5",
        "longitude": "170.83333",
        "elevation": "16",
        "time_zone": "Pacific/Majuro",
        "city_code": "AIC",
        "country": "MH",
        "city": ""
    },
    {
        "code": "AID",
        "icao": "KAID",
        "name": "Municipal",
        "latitude": "40.166668",
        "longitude": "-85.683334",
        "elevation": "882",
        "time_zone": "America/Indiana/Indianapolis",
        "city_code": "AID",
        "country": "US",
        "city": "Anderson"
    },
    {
        "code": "AIE",
        "icao": "AYAO",
        "name": "Aiome",
        "latitude": "-5.166667",
        "longitude": "144.66667",
        "elevation": "4478",
        "time_zone": "Pacific/Port_Moresby",
        "city_code": "AIE",
        "country": "PG",
        "city": ""
    },
    {
        "code": "AIF",
        "icao": "SNAX",
        "name": "Assis",
        "latitude": "-22.666668",
        "longitude": "-50.416668",
        "elevation": "1804",
        "time_zone": "America/Sao_Paulo",
        "city_code": "AIF",
        "country": "BR",
        "city": "Assis"
    },
    {
        "code": "AIG",
        "icao": "FEFY",
        "name": "Yalinga",
        "latitude": "6.521706",
        "longitude": "23.2605938",
        "elevation": "2001",
        "time_zone": "Africa/Bangui",
        "city_code": "AIG",
        "country": "CF",
        "city": ""
    },
    {
        "code": "AIH",
        "icao": "AYAK",
        "name": "Aiambak",
        "latitude": "-7.34368705",
        "longitude": "141.2679197273077",
        "elevation": "118",
        "time_zone": "Pacific/Port_Moresby",
        "city_code": "AIH",
        "country": "PG",
        "city": ""
    },
    {
        "code": "AII",
        "icao": "HDAS",
        "name": "Alisabieh",
        "latitude": "11.15",
        "longitude": "42.716667",
        "elevation": "2290",
        "time_zone": "Africa/Djibouti",
        "city_code": "AII",
        "country": "DJ",
        "city": "'Ali Sabieh"
    },
    {
        "code": "AIK",
        "icao": "KAIK",
        "name": "Municipal",
        "latitude": "33.566666",
        "longitude": "-81.71667",
        "elevation": "580",
        "time_zone": "America/New_York",
        "city_code": "AIK",
        "country": "US",
        "city": "Aiken"
    },
    {
        "code": "AIL",
        "icao": "",
        "name": "Ailigandi",
        "latitude": "9.25",
        "longitude": "-78.083336",
        "elevation": "55",
        "time_zone": "America/Panama",
        "city_code": "AIL",
        "country": "PA",
        "city": "Ailigandi"
    },
    {
        "code": "AIM",
        "icao": "",
        "name": "Ailuk Island",
        "latitude": "10.2164987",
        "longitude": "169.9825736",
        "elevation": "45",
        "time_zone": "Pacific/Majuro",
        "city_code": "AIM",
        "country": "MH",
        "city": ""
    },
    {
        "code": "AIN",
        "icao": "PAWI",
        "name": "Wainwright",
        "latitude": "70.63790295000001",
        "longitude": "-160.0150279",
        "elevation": "22",
        "time_zone": "America/Anchorage",
        "city_code": "AIN",
        "country": "US",
        "city": ""
    },
    {
        "code": "AIO",
        "icao": "KAIO",
        "name": "Municipal",
        "latitude": "41.4",
        "longitude": "-95.01667",
        "elevation": "1250",
        "time_zone": "America/Chicago",
        "city_code": "AIO",
        "country": "US",
        "city": "Atlantic"
    },
    {
        "code": "AIP",
        "icao": "VIAX",
        "name": "Ailinglapalap Island",
        "latitude": "7.266667",
        "longitude": "168.81667",
        "elevation": "0",
        "time_zone": "Pacific/Majuro",
        "city_code": "AIP",
        "country": "MH",
        "city": ""
    },
    {
        "code": "AIR",
        "icao": "SSOU",
        "name": "Aripuana",
        "latitude": "-10.25",
        "longitude": "-59.38333",
        "elevation": "1095",
        "time_zone": "America/Cuiaba",
        "city_code": "AIR",
        "country": "BR",
        "city": ""
    },
    {
        "code": "AIS",
        "icao": "NGTR",
        "name": "Arorae Island",
        "latitude": "-2.65",
        "longitude": "176.83333",
        "elevation": "45",
        "time_zone": "Pacific/Tarawa",
        "city_code": "AIS",
        "country": "KI",
        "city": "Kulia Village"
    },
    {
        "code": "AIT",
        "icao": "NCAI",
        "name": "Aitutaki Airport",
        "latitude": "-18.8364468",
        "longitude": "-159.76131",
        "elevation": "78",
        "time_zone": "Pacific/Rarotonga",
        "city_code": "AIT",
        "country": "CK",
        "city": ""
    },
    {
        "code": "AIU",
        "icao": "NCAT",
        "name": "Atiu Island",
        "latitude": "-20.033333",
        "longitude": "-158.1",
        "elevation": "0",
        "time_zone": "Pacific/Rarotonga",
        "city_code": "AIU",
        "country": "CK",
        "city": ""
    },
    {
        "code": "AIV",
        "icao": "KAIV",
        "name": "George Downer",
        "latitude": "33.13333",
        "longitude": "-88.15",
        "elevation": "269",
        "time_zone": "America/Chicago",
        "city_code": "AIV",
        "country": "US",
        "city": "Aliceville"
    },
    {
        "code": "AIW",
        "icao": "FYAA",
        "name": "Ai-ais",
        "latitude": "-27.9948193",
        "longitude": "17.596451406338325",
        "elevation": "1998",
        "time_zone": "Africa/Windhoek",
        "city_code": "AIW",
        "country": "NA",
        "city": ""
    },
    {
        "code": "AIY",
        "icao": "",
        "name": "Bader Field",
        "latitude": "39.3859082",
        "longitude": "-74.4254622",
        "elevation": "-3",
        "time_zone": "America/New_York",
        "city_code": "AIY",
        "country": "US",
        "city": ""
    },
    {
        "code": "AIZ",
        "icao": "KAIZ",
        "name": "Lee C Fine Memorial",
        "latitude": "38.0924572",
        "longitude": "-92.5535179",
        "elevation": "889",
        "time_zone": "America/Chicago",
        "city_code": "AIZ",
        "country": "US",
        "city": ""
    },
    {
        "code": "AJA",
        "icao": "LFKJ",
        "name": "Ajaccio Napoleon Bonaparte Airport",
        "latitude": "41.91987",
        "longitude": "8.794013",
        "elevation": "42",
        "time_zone": "Europe/Paris",
        "city_code": "AJA",
        "country": "FR",
        "city": "Ajaccio"
    },
    {
        "code": "AJF",
        "icao": "OESK",
        "name": "Jouf Airport",
        "latitude": "29.788668",
        "longitude": "40.101486",
        "elevation": "2208",
        "time_zone": "Asia/Riyadh",
        "city_code": "AJF",
        "country": "SA",
        "city": "Sakaka"
    },
    {
        "code": "AJI",
        "icao": "LTCO",
        "name": "Agri Airport",
        "latitude": "39.65",
        "longitude": "43.025",
        "elevation": "5406",
        "time_zone": "Europe/Istanbul",
        "city_code": "AJI",
        "country": "TR",
        "city": "Hamur"
    },
    {
        "code": "AJJ",
        "icao": "GQNJ",
        "name": "Akjoujt",
        "latitude": "19.72837225",
        "longitude": "-14.37806484",
        "elevation": "383",
        "time_zone": "Africa/Nouakchott",
        "city_code": "AJJ",
        "country": "MR",
        "city": "Akjoujt"
    },
    {
        "code": "AJK",
        "icao": "OIHR",
        "name": "Araak",
        "latitude": "34.13333",
        "longitude": "49.833332",
        "elevation": "5429",
        "time_zone": "Asia/Tehran",
        "city_code": "AJK",
        "country": "IR",
        "city": "Arak"
    },
    {
        "code": "AJL",
        "icao": "VELP",
        "name": "Aizawl Airport",
        "latitude": "23.840704799999997",
        "longitude": "92.62105703739914",
        "elevation": "1397",
        "time_zone": "Asia/Kolkata",
        "city_code": "AJL",
        "country": "IN",
        "city": "Sairang"
    },
    {
        "code": "AJN",
        "icao": "FMCV",
        "name": "Ouani",
        "latitude": "-12.12890235",
        "longitude": "44.42886316841893",
        "elevation": "101",
        "time_zone": "Indian/Comoro",
        "city_code": "AJN",
        "country": "KM",
        "city": "Ouani"
    },
    {
        "code": "AJR",
        "icao": "ESNX",
        "name": "Arvidsjaur Airport",
        "latitude": "65.5920366",
        "longitude": "19.264585907892943",
        "elevation": "1227",
        "time_zone": "Europe/Stockholm",
        "city_code": "AJR",
        "country": "SE",
        "city": "Arvidsjaur"
    },
    {
        "code": "AJS",
        "icao": "",
        "name": "Abreojos",
        "latitude": "26.833332",
        "longitude": "-113.666664",
        "elevation": "226",
        "time_zone": "America/Mazatlan",
        "city_code": "AJS",
        "country": "MX",
        "city": "Bahia Asuncion"
    },
    {
        "code": "AJU",
        "icao": "SBAR",
        "name": "Aracaju Airport",
        "latitude": "-10.98281225",
        "longitude": "-37.07602528",
        "elevation": "42",
        "time_zone": "America/Maceio",
        "city_code": "AJU",
        "country": "BR",
        "city": "Aracaju"
    },
    {
        "code": "AJY",
        "icao": "DRZA",
        "name": "Agades",
        "latitude": "16.965223950000002",
        "longitude": "7.997894294413262",
        "elevation": "1637",
        "time_zone": "Africa/Niamey",
        "city_code": "AJY",
        "country": "NE",
        "city": "Agadez"
    },
    {
        "code": "AKA",
        "icao": "ZLAK",
        "name": "Ankang",
        "latitude": "32.7081",
        "longitude": "108.93115049592605",
        "elevation": "833",
        "time_zone": "Asia/Chongqing",
        "city_code": "AKA",
        "country": "CN",
        "city": "Ankang"
    },
    {
        "code": "AKB",
        "icao": "PAAK",
        "name": "Atka",
        "latitude": "52.222215250000005",
        "longitude": "-174.2066819",
        "elevation": "29",
        "time_zone": "America/Adak",
        "city_code": "AKB",
        "country": "US",
        "city": ""
    },
    {
        "code": "AKC",
        "icao": "KAKR",
        "name": "Fulton International",
        "latitude": "41.04",
        "longitude": "-81.46778",
        "elevation": "1010",
        "time_zone": "America/New_York",
        "city_code": "CAK",
        "country": "US",
        "city": "Sawyerwood"
    },
    {
        "code": "AKD",
        "icao": "VAAK",
        "name": "Akola",
        "latitude": "20.697417",
        "longitude": "77.06134451392703",
        "elevation": "994",
        "time_zone": "Asia/Kolkata",
        "city_code": "AKD",
        "country": "IN",
        "city": "Akola"
    },
    {
        "code": "AKE",
        "icao": "FOGA",
        "name": "Akieni",
        "latitude": "-1.13967",
        "longitude": "13.9035997",
        "elevation": "1354",
        "time_zone": "Africa/Libreville",
        "city_code": "AKE",
        "country": "GA",
        "city": ""
    },
    {
        "code": "AKF",
        "icao": "HLKF",
        "name": "Kufrah",
        "latitude": "24.17807115",
        "longitude": "23.31398075824509",
        "elevation": "1148",
        "time_zone": "Africa/Tripoli",
        "city_code": "AKF",
        "country": "LY",
        "city": "Al Jawf"
    },
    {
        "code": "AKG",
        "icao": "AYGU",
        "name": "Anguganak",
        "latitude": "-3.633333",
        "longitude": "142.01666",
        "elevation": "918",
        "time_zone": "Pacific/Port_Moresby",
        "city_code": "AKG",
        "country": "PG",
        "city": ""
    },
    {
        "code": "AKH",
        "icao": "OEPS",
        "name": "Prince Sultan Air Base",
        "latitude": "24.063334",
        "longitude": "47.580555",
        "elevation": "1568",
        "time_zone": "Asia/Riyadh",
        "city_code": "AKH",
        "country": "SA",
        "city": "Ad Dilam"
    },
    {
        "code": "AKI",
        "icao": "PFAK",
        "name": "Akiak",
        "latitude": "60.9052437",
        "longitude": "-161.2268225",
        "elevation": "62",
        "time_zone": "America/Anchorage",
        "city_code": "AKI",
        "country": "US",
        "city": ""
    },
    {
        "code": "AKJ",
        "icao": "RJEC",
        "name": "Asahikawa Airport",
        "latitude": "43.6686785",
        "longitude": "142.45138689279045",
        "elevation": "646",
        "time_zone": "Asia/Tokyo",
        "city_code": "AKJ",
        "country": "JP",
        "city": "Asahikawa"
    },
    {
        "code": "AKK",
        "icao": "PAKH",
        "name": "Akhiok SPB",
        "latitude": "56.944443",
        "longitude": "-154.16667",
        "elevation": "0",
        "time_zone": "America/Anchorage",
        "city_code": "AKK",
        "country": "US",
        "city": ""
    },
    {
        "code": "AKL",
        "icao": "NZAA",
        "name": "Auckland Airport",
        "latitude": "-37.00889695",
        "longitude": "174.7912138412501",
        "elevation": "29",
        "time_zone": "Pacific/Auckland",
        "city_code": "AKL",
        "country": "NZ",
        "city": "Mangere"
    },
    {
        "code": "AKM",
        "icao": "",
        "name": "Zakouma",
        "latitude": "10.8875904",
        "longitude": "19.8153005",
        "elevation": "1354",
        "time_zone": "Africa/Ndjamena",
        "city_code": "AKM",
        "country": "TD",
        "city": ""
    },
    {
        "code": "AKN",
        "icao": "PAKN",
        "name": "King Salmon Airport",
        "latitude": "58.6753166",
        "longitude": "-156.649387",
        "elevation": "26",
        "time_zone": "America/Anchorage",
        "city_code": "AKN",
        "country": "US",
        "city": ""
    },
    {
        "code": "AKO",
        "icao": "KAKO",
        "name": "Colorado Plains Regional Airport",
        "latitude": "40.17740845",
        "longitude": "-103.2274355",
        "elevation": "4655",
        "time_zone": "America/Denver",
        "city_code": "AKO",
        "country": "US",
        "city": "Akron"
    },
    {
        "code": "AKP",
        "icao": "PAKP",
        "name": "Anaktuvuk",
        "latitude": "68.13254385",
        "longitude": "-151.7456225",
        "elevation": "2335",
        "time_zone": "America/Anchorage",
        "city_code": "AKP",
        "country": "US",
        "city": ""
    },
    {
        "code": "AKQ",
        "icao": "",
        "name": "Gunung Batin",
        "latitude": "-4.616667",
        "longitude": "105.23333",
        "elevation": "147",
        "time_zone": "Asia/Jakarta",
        "city_code": "AKQ",
        "country": "ID",
        "city": "Menggala"
    },
    {
        "code": "AKR",
        "icao": "DNAK",
        "name": "Akure",
        "latitude": "7.25",
        "longitude": "5.083333",
        "elevation": "958",
        "time_zone": "Africa/Lagos",
        "city_code": "AKR",
        "country": "NG",
        "city": "Owena"
    },
    {
        "code": "AKS",
        "icao": "AGGA",
        "name": "Gwaunaru'u",
        "latitude": "-8.7042047",
        "longitude": "160.6817763",
        "elevation": "42",
        "time_zone": "Pacific/Guadalcanal",
        "city_code": "AKS",
        "country": "SB",
        "city": ""
    },
    {
        "code": "AKT",
        "icao": "LCRA",
        "name": "Raf Akrotiri",
        "latitude": "34.5903698",
        "longitude": "32.9877483",
        "elevation": "29",
        "time_zone": "Asia/Nicosia",
        "city_code": "AKT",
        "country": "CY",
        "city": "Kolossi"
    },
    {
        "code": "AKU",
        "icao": "ZWAK",
        "name": "Aksu Airport",
        "latitude": "41.2625",
        "longitude": "80.291667",
        "elevation": "3812",
        "time_zone": "Asia/Shanghai",
        "city_code": "AKU",
        "country": "CN",
        "city": ""
    },
    {
        "code": "AKV",
        "icao": "CYKO",
        "name": "Akulivik",
        "latitude": "60.733334",
        "longitude": "-78.583336",
        "elevation": "839",
        "time_zone": "America/Iqaluit",
        "city_code": "AKV",
        "country": "CA",
        "city": ""
    },
    {
        "code": "AKW",
        "icao": "OIAG",
        "name": "Aghajari",
        "latitude": "30.743864350000003",
        "longitude": "49.67943963760571",
        "elevation": "45",
        "time_zone": "Asia/Tehran",
        "city_code": "AKW",
        "country": "IR",
        "city": "Omidiyeh"
    },
    {
        "code": "AKX",
        "icao": "UATT",
        "name": "Aktyubinsk Airport",
        "latitude": "50.249336",
        "longitude": "57.211403",
        "elevation": "715",
        "time_zone": "Asia/Aqtobe",
        "city_code": "AKX",
        "country": "KZ",
        "city": "Aqtobe"
    },
    {
        "code": "AKY",
        "icao": "VYSW",
        "name": "Civil Airport",
        "latitude": "20.130278",
        "longitude": "92.88028",
        "elevation": "26",
        "time_zone": "Asia/Rangoon",
        "city_code": "AKY",
        "country": "MM",
        "city": ""
    },
    {
        "code": "ALA",
        "icao": "UAAA",
        "name": "Almaty Airport",
        "latitude": "43.355686250000005",
        "longitude": "77.04258378940835",
        "elevation": "2240",
        "time_zone": "Asia/Almaty",
        "city_code": "ALA",
        "country": "KZ",
        "city": "Pervomayskiy"
    },
    {
        "code": "ALB",
        "icao": "KALB",
        "name": "Albany International Airport",
        "latitude": "42.7457516",
        "longitude": "-73.8092091",
        "elevation": "301",
        "time_zone": "America/New_York",
        "city_code": "ALB",
        "country": "US",
        "city": "Colonie"
    },
    {
        "code": "ALC",
        "icao": "LEAL",
        "name": "Alicante-Elche Airport",
        "latitude": "38.2888263",
        "longitude": "-0.5542897",
        "elevation": "72",
        "time_zone": "Europe/Madrid",
        "city_code": "ALC",
        "country": "ES",
        "city": ""
    },
    {
        "code": "ALD",
        "icao": "SPAR",
        "name": "Alerta",
        "latitude": "-11.683333",
        "longitude": "-69.333336",
        "elevation": "859",
        "time_zone": "America/Lima",
        "city_code": "ALD",
        "country": "PE",
        "city": ""
    },
    {
        "code": "ALE",
        "icao": "",
        "name": "Alpine",
        "latitude": "30.416668",
        "longitude": "-103.75",
        "elevation": "5055",
        "time_zone": "America/Chicago",
        "city_code": "ALE",
        "country": "US",
        "city": "Alpine"
    },
    {
        "code": "ALF",
        "icao": "ENAT",
        "name": "Alta Airport",
        "latitude": "69.9771632",
        "longitude": "23.35951896505862",
        "elevation": "6",
        "time_zone": "Europe/Oslo",
        "city_code": "ALF",
        "country": "NO",
        "city": "Alta"
    },
    {
        "code": "ALG",
        "icao": "DAAG",
        "name": "Houari Boumediene Airport",
        "latitude": "36.7013497",
        "longitude": "3.210903183",
        "elevation": "49",
        "time_zone": "Africa/Algiers",
        "city_code": "ALG",
        "country": "DZ",
        "city": "Dar el Beida"
    },
    {
        "code": "ALH",
        "icao": "YABA",
        "name": "Albany Airport",
        "latitude": "-34.9443954",
        "longitude": "117.80958889032424",
        "elevation": "183",
        "time_zone": "Australia/Perth",
        "city_code": "ALH",
        "country": "AU",
        "city": "Albany"
    },
    {
        "code": "ALI",
        "icao": "KALI",
        "name": "International",
        "latitude": "27.75",
        "longitude": "-98.066666",
        "elevation": "193",
        "time_zone": "America/Chicago",
        "city_code": "ALI",
        "country": "US",
        "city": "Alice"
    },
    {
        "code": "ALJ",
        "icao": "FAAB",
        "name": "Alexander Bay Airport",
        "latitude": "-28.573333",
        "longitude": "16.534444",
        "elevation": "55",
        "time_zone": "Africa/Johannesburg",
        "city_code": "ALJ",
        "country": "ZA",
        "city": ""
    },
    {
        "code": "ALK",
        "icao": "",
        "name": "Asela",
        "latitude": "7.966667",
        "longitude": "39.11667",
        "elevation": "7414",
        "time_zone": "Africa/Addis_Ababa",
        "city_code": "ALK",
        "country": "ET",
        "city": "Huruta"
    },
    {
        "code": "ALL",
        "icao": "LIMG",
        "name": "Albenga",
        "latitude": "44.05",
        "longitude": "8.216667",
        "elevation": "59",
        "time_zone": "Europe/Rome",
        "city_code": "ALL",
        "country": "IT",
        "city": "Albenga"
    },
    {
        "code": "ALM",
        "icao": "KALM",
        "name": "Municipal",
        "latitude": "32.845833",
        "longitude": "-105.985275",
        "elevation": "4206",
        "time_zone": "America/Denver",
        "city_code": "ALM",
        "country": "US",
        "city": "Boles Acres"
    },
    {
        "code": "ALN",
        "icao": "KALN",
        "name": "Alton",
        "latitude": "38.891666",
        "longitude": "-90.04833",
        "elevation": "515",
        "time_zone": "America/Chicago",
        "city_code": "ALN",
        "country": "US",
        "city": "Bethalto"
    },
    {
        "code": "ALO",
        "icao": "KALO",
        "name": "Waterloo Airport",
        "latitude": "42.55611",
        "longitude": "-92.39972",
        "elevation": "872",
        "time_zone": "America/Chicago",
        "city_code": "ALO",
        "country": "US",
        "city": "Cedar Falls"
    },
    {
        "code": "ALP",
        "icao": "OSAP",
        "name": "Nejrab",
        "latitude": "36.185352",
        "longitude": "37.227074",
        "elevation": "1272",
        "time_zone": "Asia/Damascus",
        "city_code": "ALP",
        "country": "SY",
        "city": "Aleppo"
    },
    {
        "code": "ALQ",
        "icao": "SSLT",
        "name": "Federal",
        "latitude": "-29.799723",
        "longitude": "-55.763332",
        "elevation": "334",
        "time_zone": "America/Sao_Paulo",
        "city_code": "ALQ",
        "country": "BR",
        "city": "Alegrete"
    },
    {
        "code": "ALR",
        "icao": "NZLX",
        "name": "Alexandra",
        "latitude": "-45.21389",
        "longitude": "169.36945",
        "elevation": "728",
        "time_zone": "Pacific/Auckland",
        "city_code": "ALR",
        "country": "NZ",
        "city": ""
    },
    {
        "code": "ALS",
        "icao": "KALS",
        "name": "Alamosa Municipal Airport",
        "latitude": "37.43667",
        "longitude": "-105.86667",
        "elevation": "7519",
        "time_zone": "America/Denver",
        "city_code": "ALS",
        "country": "US",
        "city": "Alamosa"
    },
    {
        "code": "ALT",
        "icao": "SDWQ",
        "name": "Alenquer",
        "latitude": "-1.933333",
        "longitude": "-54.766666",
        "elevation": "3",
        "time_zone": "America/Santarem",
        "city_code": "ALT",
        "country": "BR",
        "city": "Alenquer"
    },
    {
        "code": "ALU",
        "icao": "HCMA",
        "name": "Alula",
        "latitude": "11.966667",
        "longitude": "50.8",
        "elevation": "22",
        "time_zone": "Africa/Mogadishu",
        "city_code": "ALU",
        "country": "SO",
        "city": "Bereeda"
    },
    {
        "code": "ALW",
        "icao": "KALW",
        "name": "Walla Walla Airport",
        "latitude": "46.094085699999994",
        "longitude": "-118.2911423",
        "elevation": "1138",
        "time_zone": "America/Los_Angeles",
        "city_code": "ALW",
        "country": "US",
        "city": "Walla Walla East"
    },
    {
        "code": "ALX",
        "icao": "KALX",
        "name": "Thomas C Russell Field",
        "latitude": "32.91343435",
        "longitude": "-85.96246743",
        "elevation": "367",
        "time_zone": "America/Chicago",
        "city_code": "ALX",
        "country": "US",
        "city": "Alexander City"
    },
    {
        "code": "ALY",
        "icao": "HEAX",
        "name": "El Nohza",
        "latitude": "31.192545",
        "longitude": "29.953058",
        "elevation": "32",
        "time_zone": "Africa/Cairo",
        "city_code": "ALY",
        "country": "EG",
        "city": ""
    },
    {
        "code": "ALZ",
        "icao": "",
        "name": "Alitak SPB",
        "latitude": "56.895832",
        "longitude": "-154.24583",
        "elevation": "0",
        "time_zone": "America/Anchorage",
        "city_code": "ALZ",
        "country": "US",
        "city": ""
    },
    {
        "code": "AMA",
        "icao": "KAMA",
        "name": "Rick Husband Amarillo International Airport",
        "latitude": "35.219594150000006",
        "longitude": "-101.7018304",
        "elevation": "3605",
        "time_zone": "America/Chicago",
        "city_code": "AMA",
        "country": "US",
        "city": ""
    },
    {
        "code": "AMB",
        "icao": "FMNE",
        "name": "Ambilobe",
        "latitude": "-13.1865961",
        "longitude": "48.9876126",
        "elevation": "68",
        "time_zone": "Indian/Antananarivo",
        "city_code": "AMB",
        "country": "MG",
        "city": "Ambilobe"
    },
    {
        "code": "AMC",
        "icao": "FTTN",
        "name": "Am Timan",
        "latitude": "11.0350134",
        "longitude": "20.274701290842827",
        "elevation": "1456",
        "time_zone": "Africa/Ndjamena",
        "city_code": "AMC",
        "country": "TD",
        "city": "Am Timan"
    },
    {
        "code": "AMD",
        "icao": "VAAH",
        "name": "Ahmedabad Airport",
        "latitude": "23.0855562",
        "longitude": "72.6305442",
        "elevation": "209",
        "time_zone": "Asia/Kolkata",
        "city_code": "AMD",
        "country": "IN",
        "city": "Naroda"
    },
    {
        "code": "AME",
        "icao": "",
        "name": "Alto Molocue",
        "latitude": "-15.833333",
        "longitude": "37.583332",
        "elevation": "1784",
        "time_zone": "Africa/Maputo",
        "city_code": "AME",
        "country": "MZ",
        "city": ""
    },
    {
        "code": "AMF",
        "icao": "AYAA",
        "name": "Ama",
        "latitude": "-4.166667",
        "longitude": "141.66667",
        "elevation": "157",
        "time_zone": "Pacific/Port_Moresby",
        "city_code": "AMF",
        "country": "PG",
        "city": ""
    },
    {
        "code": "AMG",
        "icao": "",
        "name": "Amboin",
        "latitude": "-4.616667",
        "longitude": "143.7",
        "elevation": "183",
        "time_zone": "Pacific/Port_Moresby",
        "city_code": "AMG",
        "country": "PG",
        "city": ""
    },
    {
        "code": "AMH",
        "icao": "HAAM",
        "name": "Arba Mintch Airport",
        "latitude": "6.036111",
        "longitude": "37.576942",
        "elevation": "3914",
        "time_zone": "Africa/Addis_Ababa",
        "city_code": "AMH",
        "country": "ET",
        "city": "Arba Minch'"
    },
    {
        "code": "AMI",
        "icao": "WADA",
        "name": "Selaparang",
        "latitude": "-8.5618359",
        "longitude": "116.10222973992147",
        "elevation": "59",
        "time_zone": "Asia/Makassar",
        "city_code": "AMI",
        "country": "ID",
        "city": "Mataram"
    },
    {
        "code": "AMJ",
        "icao": "SNAR",
        "name": "Almenara",
        "latitude": "-16.183332",
        "longitude": "-40.683334",
        "elevation": "593",
        "time_zone": "America/Sao_Paulo",
        "city_code": "AMJ",
        "country": "BR",
        "city": "Almenara"
    },
    {
        "code": "AMK",
        "icao": "",
        "name": "Animas Airpark",
        "latitude": "37.15",
        "longitude": "-107.75",
        "elevation": "6637",
        "time_zone": "America/Denver",
        "city_code": "DRO",
        "country": "US",
        "city": ""
    },
    {
        "code": "AML",
        "icao": "",
        "name": "Puerto Armuellas",
        "latitude": "8.266667",
        "longitude": "-82.86667",
        "elevation": "55",
        "time_zone": "America/Panama",
        "city_code": "AML",
        "country": "PA",
        "city": "Puerto Armuelles"
    },
    {
        "code": "AMM",
        "icao": "OJAI",
        "name": "Queen Alia International Airport",
        "latitude": "31.7241013",
        "longitude": "35.995440207589255",
        "elevation": "2332",
        "time_zone": "Asia/Amman",
        "city_code": "AMM",
        "country": "JO",
        "city": "Al Jizah"
    },
    {
        "code": "AMN",
        "icao": "KAMN",
        "name": "Gratiot Community",
        "latitude": "43.38333",
        "longitude": "-84.65",
        "elevation": "751",
        "time_zone": "America/Detroit",
        "city_code": "AMN",
        "country": "US",
        "city": "Alma"
    },
    {
        "code": "AMO",
        "icao": "FTTU",
        "name": "Mao",
        "latitude": "14.116667",
        "longitude": "15.316667",
        "elevation": "1049",
        "time_zone": "Africa/Ndjamena",
        "city_code": "AMO",
        "country": "TD",
        "city": "Mao"
    },
    {
        "code": "AMP",
        "icao": "FMSY",
        "name": "Ampanihy",
        "latitude": "-24.6996994",
        "longitude": "44.7341995",
        "elevation": "725",
        "time_zone": "Indian/Antananarivo",
        "city_code": "AMP",
        "country": "MG",
        "city": "Ampanihy"
    },
    {
        "code": "AMQ",
        "icao": "WAPP",
        "name": "Pattimura Airport",
        "latitude": "-3.71111525",
        "longitude": "128.0878877356375",
        "elevation": "49",
        "time_zone": "Asia/Jayapura",
        "city_code": "AMQ",
        "country": "ID",
        "city": "Amahusu"
    },
    {
        "code": "AMR",
        "icao": "",
        "name": "Arno",
        "latitude": "7.033333",
        "longitude": "171.23334",
        "elevation": "0",
        "time_zone": "Pacific/Majuro",
        "city_code": "AMR",
        "country": "MH",
        "city": ""
    },
    {
        "code": "AMS",
        "icao": "EHAM",
        "name": "Amsterdam Airport Schiphol",
        "latitude": "52.32697895",
        "longitude": "4.741505200022974",
        "elevation": "36",
        "time_zone": "Europe/Amsterdam",
        "city_code": "AMS",
        "country": "NL",
        "city": "Aalsmeer"
    },
    {
        "code": "AMT",
        "icao": "YAMT",
        "name": "Amata",
        "latitude": "-26.766666",
        "longitude": "132.03334",
        "elevation": "1748",
        "time_zone": "Australia/Adelaide",
        "city_code": "AMT",
        "country": "AU",
        "city": ""
    },
    {
        "code": "AMU",
        "icao": "AYAM",
        "name": "Amanab",
        "latitude": "-3.516667",
        "longitude": "141.15",
        "elevation": "1112",
        "time_zone": "Pacific/Port_Moresby",
        "city_code": "AMU",
        "country": "PG",
        "city": ""
    },
    {
        "code": "AMV",
        "icao": "ULDD",
        "name": "Amderma",
        "latitude": "69.7634173",
        "longitude": "61.56749323781253",
        "elevation": "13",
        "time_zone": "Europe/Moscow",
        "city_code": "AMV",
        "country": "RU",
        "city": "Vorgashor"
    },
    {
        "code": "AMW",
        "icao": "KAMW",
        "name": "Ames",
        "latitude": "41.9903107",
        "longitude": "-93.62215445",
        "elevation": "908",
        "time_zone": "America/Chicago",
        "city_code": "AMW",
        "country": "US",
        "city": "Ames"
    },
    {
        "code": "AMX",
        "icao": "YAMM",
        "name": "Ammaroo",
        "latitude": "-21.7383003",
        "longitude": "135.2420044",
        "elevation": "1259",
        "time_zone": "Australia/Darwin",
        "city_code": "AMX",
        "country": "AU",
        "city": ""
    },
    {
        "code": "AMY",
        "icao": "",
        "name": "Ambatomainty",
        "latitude": "-17.683332",
        "longitude": "45.666668",
        "elevation": "938",
        "time_zone": "Indian/Antananarivo",
        "city_code": "AMY",
        "country": "MG",
        "city": ""
    },
    {
        "code": "AMZ",
        "icao": "NZAR",
        "name": "Ardmore",
        "latitude": "-37.033333",
        "longitude": "174.96666",
        "elevation": "62",
        "time_zone": "Pacific/Auckland",
        "city_code": "AMZ",
        "country": "NZ",
        "city": "Red Hill"
    },
    {
        "code": "ANA",
        "icao": "HKOM",
        "name": "John Wayne International",
        "latitude": "33.816666",
        "longitude": "-117.933334",
        "elevation": "121",
        "time_zone": "America/Los_Angeles",
        "city_code": "ANA",
        "country": "US",
        "city": "Anaheim"
    },
    {
        "code": "ANB",
        "icao": "KANB",
        "name": "Anniston Metropolitan",
        "latitude": "33.59028",
        "longitude": "-85.855835",
        "elevation": "626",
        "time_zone": "America/Chicago",
        "city_code": "ANB",
        "country": "US",
        "city": "Oxford"
    },
    {
        "code": "ANC",
        "icao": "PANC",
        "name": "Ted Stevens Anchorage International Airport",
        "latitude": "61.18103525",
        "longitude": "-149.9978919",
        "elevation": "62",
        "time_zone": "America/Anchorage",
        "city_code": "ANC",
        "country": "US",
        "city": ""
    },
    {
        "code": "AND",
        "icao": "KAND",
        "name": "Anderson",
        "latitude": "34.49361",
        "longitude": "-82.71",
        "elevation": "728",
        "time_zone": "America/New_York",
        "city_code": "AND",
        "country": "US",
        "city": "Centerville"
    },
    {
        "code": "ANE",
        "icao": "LFJR",
        "name": "Angers-Marce Airport",
        "latitude": "47.466667",
        "longitude": "-0.55",
        "elevation": "144",
        "time_zone": "Europe/Paris",
        "city_code": "ANE",
        "country": "FR",
        "city": ""
    },
    {
        "code": "ANF",
        "icao": "SCFA",
        "name": "Cerro Moreno International Airport",
        "latitude": "-23.4523757",
        "longitude": "-70.43973434",
        "elevation": "347",
        "time_zone": "America/Santiago",
        "city_code": "ANF",
        "country": "CL",
        "city": "Antofagasta"
    },
    {
        "code": "ANG",
        "icao": "LFBU",
        "name": "Brie-Champniers",
        "latitude": "45.733334",
        "longitude": "0.216667",
        "elevation": "396",
        "time_zone": "Europe/Paris",
        "city_code": "ANG",
        "country": "FR",
        "city": "Champniers"
    },
    {
        "code": "ANH",
        "icao": "",
        "name": "Anuha Island Resort",
        "latitude": "-8.983333",
        "longitude": "160.5",
        "elevation": "0",
        "time_zone": "Pacific/Guadalcanal",
        "city_code": "ANH",
        "country": "SB",
        "city": ""
    },
    {
        "code": "ANI",
        "icao": "PANI",
        "name": "Aniak Airport",
        "latitude": "61.5813889",
        "longitude": "-159.5427778",
        "elevation": "49",
        "time_zone": "America/Anchorage",
        "city_code": "ANI",
        "country": "US",
        "city": ""
    },
    {
        "code": "ANJ",
        "icao": "FCBZ",
        "name": "Zanaga",
        "latitude": "-2.8474064",
        "longitude": "13.8214267",
        "elevation": "1863",
        "time_zone": "Africa/Brazzaville",
        "city_code": "ANJ",
        "country": "CG",
        "city": ""
    },
    {
        "code": "ANK",
        "icao": "LTAD",
        "name": "Etimesgut",
        "latitude": "39.951794199999995",
        "longitude": "32.68941441008361",
        "elevation": "2627",
        "time_zone": "Europe/Istanbul",
        "city_code": "ANK",
        "country": "TR",
        "city": "Batikent"
    },
    {
        "code": "ANL",
        "icao": "",
        "name": "Andulo",
        "latitude": "-11.25",
        "longitude": "17.25",
        "elevation": "4675",
        "time_zone": "Africa/Luanda",
        "city_code": "ANL",
        "country": "AO",
        "city": "Camacupa"
    },
    {
        "code": "ANM",
        "icao": "FMNH",
        "name": "Antsirabato",
        "latitude": "-14.9990678",
        "longitude": "50.3182525",
        "elevation": "26",
        "time_zone": "Indian/Antananarivo",
        "city_code": "ANM",
        "country": "MG",
        "city": "Antalaha"
    },
    {
        "code": "ANN",
        "icao": "PANT",
        "name": "Annette Island",
        "latitude": "55.0415764",
        "longitude": "-131.5646265",
        "elevation": "78",
        "time_zone": "America/Metlakatla",
        "city_code": "ANN",
        "country": "US",
        "city": ""
    },
    {
        "code": "ANO",
        "icao": "FQAG",
        "name": "Angoche",
        "latitude": "-16.18367445",
        "longitude": "39.94441128505658",
        "elevation": "124",
        "time_zone": "Africa/Maputo",
        "city_code": "ANO",
        "country": "MZ",
        "city": ""
    },
    {
        "code": "ANP",
        "icao": "KANP",
        "name": "Lee",
        "latitude": "38.983334",
        "longitude": "-76.5",
        "elevation": "29",
        "time_zone": "America/New_York",
        "city_code": "ANP",
        "country": "US",
        "city": "Annapolis"
    },
    {
        "code": "ANQ",
        "icao": "KANQ",
        "name": "Tri-State Steuben County",
        "latitude": "41.63333",
        "longitude": "-85",
        "elevation": "1053",
        "time_zone": "America/Indiana/Indianapolis",
        "city_code": "ANQ",
        "country": "US",
        "city": "Angola"
    },
    {
        "code": "ANR",
        "icao": "EBAW",
        "name": "Antwerp International Airport",
        "latitude": "51.1881429",
        "longitude": "4.463473861141249",
        "elevation": "29",
        "time_zone": "Europe/Brussels",
        "city_code": "ANR",
        "country": "BE",
        "city": "Mortsel"
    },
    {
        "code": "ANS",
        "icao": "SPHY",
        "name": "Andahuaylas",
        "latitude": "-13.709079",
        "longitude": "-73.35160446",
        "elevation": "11581",
        "time_zone": "America/Lima",
        "city_code": "ANS",
        "country": "PE",
        "city": "San Jeronimo"
    },
    {
        "code": "ANT",
        "icao": "",
        "name": "St Anton",
        "latitude": "47.15",
        "longitude": "10.283333",
        "elevation": "5672",
        "time_zone": "Europe/Vienna",
        "city_code": "ANT",
        "country": "AT",
        "city": "Sankt Anton am Arlberg"
    },
    {
        "code": "ANU",
        "icao": "TAPA",
        "name": "V.C. Bird International Airport",
        "latitude": "17.13578595",
        "longitude": "-61.79381928",
        "elevation": "42",
        "time_zone": "America/Antigua",
        "city_code": "ANU",
        "country": "AG",
        "city": "Parham"
    },
    {
        "code": "ANV",
        "icao": "PANV",
        "name": "Anvik Airport",
        "latitude": "62.6451092",
        "longitude": "-160.1932999",
        "elevation": "265",
        "time_zone": "America/Anchorage",
        "city_code": "ANV",
        "country": "US",
        "city": ""
    },
    {
        "code": "ANW",
        "icao": "KANW",
        "name": "Ainsworth",
        "latitude": "42.55",
        "longitude": "-99.86667",
        "elevation": "2513",
        "time_zone": "America/Chicago",
        "city_code": "ANW",
        "country": "US",
        "city": "Ainsworth"
    },
    {
        "code": "ANX",
        "icao": "ENAN",
        "name": "Andenes Airport",
        "latitude": "69.29132535",
        "longitude": "16.13968094661204",
        "elevation": "26",
        "time_zone": "Europe/Oslo",
        "city_code": "ANX",
        "country": "NO",
        "city": "Andenes"
    },
    {
        "code": "ANY",
        "icao": "KANY",
        "name": "Anthony",
        "latitude": "37.15",
        "longitude": "-98.03333",
        "elevation": "1335",
        "time_zone": "America/Chicago",
        "city_code": "ANY",
        "country": "US",
        "city": "Anthony"
    },
    {
        "code": "ANZ",
        "icao": "",
        "name": "Angus Downs",
        "latitude": "-25.083332",
        "longitude": "132.16667",
        "elevation": "1656",
        "time_zone": "Australia/Darwin",
        "city_code": "ANZ",
        "country": "AU",
        "city": ""
    },
    {
        "code": "AOA",
        "icao": "",
        "name": "Aroa",
        "latitude": "-9.05",
        "longitude": "146.8",
        "elevation": "29",
        "time_zone": "Pacific/Port_Moresby",
        "city_code": "AOA",
        "country": "PG",
        "city": ""
    },
    {
        "code": "AOB",
        "icao": "",
        "name": "Annanberg",
        "latitude": "-4.916667",
        "longitude": "144.65",
        "elevation": "150",
        "time_zone": "Pacific/Port_Moresby",
        "city_code": "AOB",
        "country": "PG",
        "city": ""
    },
    {
        "code": "AOC",
        "icao": "EDAC",
        "name": "Altenburg Nobitz",
        "latitude": "50.98321195",
        "longitude": "12.509863258666915",
        "elevation": "662",
        "time_zone": "Europe/Berlin",
        "city_code": "AOC",
        "country": "DE",
        "city": "Altenburg"
    },
    {
        "code": "AOD",
        "icao": "",
        "name": "Abou Deia",
        "latitude": "11.4637088",
        "longitude": "19.2874812",
        "elevation": "1578",
        "time_zone": "Africa/Ndjamena",
        "city_code": "AOD",
        "country": "TD",
        "city": ""
    },
    {
        "code": "AOE",
        "icao": "LTBY",
        "name": "Anadolu University",
        "latitude": "39.81",
        "longitude": "30.519444",
        "elevation": "2595",
        "time_zone": "Europe/Istanbul",
        "city_code": "ESK",
        "country": "TR",
        "city": ""
    },
    {
        "code": "AOG",
        "icao": "ZYAS",
        "name": "Anshan Teng'ao Airport",
        "latitude": "41.166668",
        "longitude": "123.03333",
        "elevation": "82",
        "time_zone": "Asia/Shanghai",
        "city_code": "AOG",
        "country": "CN",
        "city": "Anshan"
    },
    {
        "code": "AOH",
        "icao": "KAOH",
        "name": "Allen County",
        "latitude": "40.766666",
        "longitude": "-84.1",
        "elevation": "879",
        "time_zone": "America/New_York",
        "city_code": "AOH",
        "country": "US",
        "city": "Lima"
    },
    {
        "code": "AOI",
        "icao": "LIPY",
        "name": "Ancona Falconara Airport",
        "latitude": "43.61716225",
        "longitude": "13.364858030368092",
        "elevation": "39",
        "time_zone": "Europe/Rome",
        "city_code": "AOI",
        "country": "IT",
        "city": "Falconara Marittima"
    },
    {
        "code": "AOJ",
        "icao": "RJSA",
        "name": "Aomori Airport",
        "latitude": "40.7340525",
        "longitude": "140.689686",
        "elevation": "652",
        "time_zone": "Asia/Tokyo",
        "city_code": "AOJ",
        "country": "JP",
        "city": ""
    },
    {
        "code": "AOK",
        "icao": "LGKP",
        "name": "Karpathos Airport",
        "latitude": "35.42109615",
        "longitude": "27.145333449162123",
        "elevation": "29",
        "time_zone": "Europe/Athens",
        "city_code": "AOK",
        "country": "GR",
        "city": "Karpathos"
    },